[{"name": "Zhou Hui Grocery Store", "location": [40.713268, -73.994498], "address": "13B Market St New York NY 10002", "distance": 970, "category": "Grocery Store / Supermarket"}, {"name": "Teng Fei Grocery Store", "location": [40.717195023841796, -73.99046036835232], "address": "329 Grand St New York NY 10002", "distance": 1397, "category": "Grocery Store / Supermarket"}, {"name": "47 Pitt Grocery", "location": [40.718983695292096, -73.9819436633251], "address": "47 Pitt St New York NY 10002", "distance": 2139, "category": "Deli"}, {"name": "Espinal Grocery", "location": [40.67511775039857, -73.96661410496867], "address": "176 Underhill Ave Brooklyn NY 11238", "distance": 5342, "category": "Convenience Store"}, {"name": "Madison Grocery Store", "location": [40.691340000000004, -73.916919], "address": "483 Evergreen Ave Brooklyn NY 11221", "distance": 7874, "category": "Grocery Store / Supermarket"}, {"name": "M & M S Grocery Store", "location": [40.681651, -73.916752], "address": "386 Chauncey St Brooklyn NY 11233", "distance": 8277, "category": "Grocery Store / Supermarket"}, {"name": "Grocery store", "location": [40.68962097167969, -73.96546936035156], "address": "322 Dekalb Ave Brooklyn NY 11205", "distance": 4277, "category": "Grocery Store / Supermarket"}, {"name": "Grocery store", "location": [40.69449234008789, -73.94921112060547], "address": "588 Marcy Ave Brooklyn NY 11206", "distance": 5198, "category": "Grocery Store / Supermarket"}, {"name": "Sun Vin Grocery Store", "location": [40.71628362630968, -73.99922579526901], "address": "75 Mulberry St New York NY 10013", "distance": 689, "category": "Grocery Store / Supermarket"}, {"name": "Tavarez Deli Grocery Store", "location": [40.72274919, -73.992102], "address": "15 Stanton St New York NY 10002", "distance": 1610, "category": "Grocery Store / Supermarket"}, {"name": "Day Light Grocery Store", "location": [40.714297377585225, -73.99038791656494], "address": "26 Canal St New York NY 10002", "distance": 1325, "category": "Grocery Store / Supermarket"}, {"name": "W&W Grocery Store", "location": [40.71741, -73.991824], "address": "301 Grand St New York NY 10002", "distance": 1299, "category": "Flower Store"}, {"name": "Etc. Grocery Store", "location": [40.73370361328125, -74.00428771972656], "address": "337 Bleecker St New York NY 10014", "distance": 2327, "category": "Miscellaneous Store"}, {"name": "Santos Grocery Store", "location": [40.711193, -73.957074], "address": "274 S 2nd St Brooklyn NY 11211", "distance": 4125, "category": "Grocery Store / Supermarket"}, {"name": "Dubai Grocery Store", "location": [40.681434629382935, -73.97422044674367], "address": "486 Dean St Brooklyn NY 11217", "distance": 4395, "category": "Deli"}, {"name": "Lee's Liquor & Grocery Store", "location": [40.749298, -74.042198], "address": "45 Congress St Jersey City NJ 07307", "distance": 5073, "category": "Grocery Store / Supermarket"}, {"name": "Divino Nino Grocery Store", "location": [40.71095720530854, -73.95367744934147], "address": "407 Keap St Brooklyn NY 11211", "distance": 4412, "category": "Convenience Store"}, {"name": "Corner News & Grocery", "location": [40.75568771362305, -73.99050903320312], "address": "618 8th Ave New York NY 10018", "distance": 4941, "category": "Convenience Store"}, {"name": "Eridnania Grocery Store", "location": [40.716957092285156, -73.94038391113281], "address": "29 Kingsland Ave Brooklyn NY 11211", "distance": 5546, "category": "Restaurant"}, {"name": "Los Primos Grocery", "location": [40.70041124588944, -73.92960139410951], "address": "105 Central Ave Brooklyn NY 11206", "distance": 6581, "category": "Grocery Store / Supermarket"}, {"name": "Ab Grocery", "location": [40.675785999999995, -73.93308], "address": "99 Schenectady Ave Brooklyn NY 11213", "distance": 7393, "category": "Deli"}, {"name": "Seven & One Grocery Store", "location": [40.68030219048167, -73.94038793217769], "address": "1521 Fulton St Brooklyn NY 11216", "distance": 6603, "category": "Deli"}, {"name": "Lealy Super Deli Grocery Store", "location": [40.671815693653016, -73.95213246282994], "address": "790 Nostrand Ave Brooklyn NY 11216", "distance": 6429, "category": "Deli"}, {"name": "Martin Grocery", "location": [40.728809999999996, -74.080838], "address": "268 Duncan Ave Jersey City NJ 07306", "distance": 6549, "category": "Grocery Store / Supermarket"}, {"name": "Nu\u00f1ez Grocery Store", "location": [40.660280269241916, -73.94609249490384], "address": "Brooklyn ave Brooklyn NY 11216", "distance": 7716, "category": "Deli"}, {"name": "Tasmia Discount Store", "location": [40.672725, -73.950506], "address": "760 Nostrand Ave Brooklyn NY 11216", "distance": 6457, "category": "Department Store"}, {"name": "Unity Grocery", "location": [40.668208, -73.950916], "address": "876 Nostrand Ave Brooklyn NY 11225", "distance": 6789, "category": "Grocery Store / Supermarket"}, {"name": "FNL Meat & Poultry Grocery Store", "location": [40.679646999999996, -73.939071], "address": "1546 Fulton St Brooklyn NY 11216", "distance": 6735, "category": "Butcher"}, {"name": "Kristal Grocery Store", "location": [40.68000030517578, -73.93861389160156], "address": "1565 Fulton St Brooklyn NY 11216", "distance": 6746, "category": "Grocery Store / Supermarket"}, {"name": "Taiyo Foods Japanese Grocery Store", "location": [40.745167, -73.92193], "address": "4508 44th St Sunnyside NY 11104", "distance": 7940, "category": "Grocery Store / Supermarket"}, {"name": "Juquilita Grocery Store", "location": [40.6494140625, -74.00619506835938], "address": "4216 5th Ave Brooklyn NY 11232", "distance": 7043, "category": "Deli"}, {"name": "Los Nietos Grocery Store", "location": [40.697447, -73.92943299999999], "address": "1218 Myrtle Ave Brooklyn NY 11221", "distance": 6671, "category": "Grocery Store / Supermarket"}, {"name": "Halsey grocery store", "location": [40.68399759174267, -73.92516110863632], "address": "686 Halsey St Brooklyn NY 11233", "distance": 7525, "category": "Deli"}, {"name": "Acosta Grocery Store", "location": [40.696777, -73.918579], "address": "313 Wilson Ave New York NY 11237", "distance": 7576, "category": "Grocery Store / Supermarket"}, {"name": "L & M Grocery Store", "location": [40.6475, -73.968339], "address": "1201 Church Ave New York NY 11218", "distance": 7920, "category": "Grocery Store / Supermarket"}, {"name": "Kang Mei Qin Grocery Store", "location": [40.642234802246094, -74.00732421875], "address": "5101 6th Ave Brooklyn NY 11220", "distance": 7842, "category": "Retail"}, {"name": "Pimentel Grocery Store", "location": [40.647856, -73.967727], "address": "1223 Church Ave Brooklyn NY 11218", "distance": 7904, "category": "Grocery Store / Supermarket"}, {"name": "J & Y Grocery", "location": [40.64182662963867, -74.0025634765625], "address": "4809 8th Ave Brooklyn NY 11220", "distance": 7892, "category": "Grocery Store / Supermarket"}, {"name": "Juquilita Grocery Store", "location": [40.64205551147461, -74.01667022705078], "address": "5713 4th Ave Brooklyn NY 11220", "distance": 7912, "category": "Deli"}, {"name": "Weinstein Grocery Store", "location": [40.640259, -73.99532099999999], "address": "4510 Fort Hamilton Pkwy Brooklyn NY 11219", "distance": 8111, "category": "Grocery Store / Supermarket"}]