[{"name": "Junior's Restaurant", "location": [40.69001145156075, -73.98173375415745], "address": "386 Flatbush Avenue Ext Brooklyn NY 11201", "distance": 3254, "category": "Restaurant"}, {"name": "Junior's", "location": [40.758349343546215, -73.98651265011574], "address": "1515 Broadway New York NY 10036", "distance": 5321, "category": "Diner"}, {"name": "Golden Unicorn Restaurant", "location": [40.713628504646834, -73.99723023176193], "address": "18 E Broadway New York NY 10002", "distance": 744, "category": "Asian Restaurant"}, {"name": "O'Hara's Restaurant and Pub", "location": [40.70989378141622, -74.01283563128297], "address": "120 Cedar St New York NY 10006", "distance": 660, "category": "Restaurant"}, {"name": "Clinton Street Baking Co.", "location": [40.721385402295766, -73.98394925545875], "address": "4 Clinton St New York NY 10002", "distance": 2087, "category": "Bakery"}, {"name": "Waverly Restaurant", "location": [40.73301202815689, -74.00012444986078], "address": "385 Avenue of the Americas New York NY 10014", "distance": 2299, "category": "Diner"}, {"name": "Carmine's", "location": [40.7574973, -73.9867788], "address": "200 W 44th St New York NY 10036", "distance": 5224, "category": "Italian Restaurant"}, {"name": "Tom's Restaurant", "location": [40.674536980944715, -73.96321631850594], "address": "782 Washington Ave Brooklyn NY 11238", "distance": 5574, "category": "Diner"}, {"name": "Onieal's Restaurant & Bar", "location": [40.741608, -74.032304], "address": "343 Park Ave Hoboken NJ 07030", "distance": 3892, "category": "Sports Bar"}, {"name": "Maggie Reilly's", "location": [40.75051040048438, -73.99839123687629], "address": "340 9th Ave New York NY 10001", "distance": 4239, "category": "Pub"}, {"name": "Ora Restaurant", "location": [40.738132565679834, -73.98901345499739], "address": "39 E 19th St New York NY 10003", "distance": 3157, "category": "Greek Restaurant"}, {"name": "P J Bernstein Deli Restaurant", "location": [40.76857336605853, -73.96152791201948], "address": "1215 3rd Ave New York NY 10021", "distance": 7241, "category": "Deli"}, {"name": "Bo Ky Restaurant", "location": [40.71569636637641, -73.99866703526523], "address": "80 Bayard St New York NY 10013", "distance": 696, "category": "Chinese Restaurant"}, {"name": "Royal Seafood Restaurant", "location": [40.717304649702356, -73.99749740784958], "address": "103 Mott St New York NY 10013", "distance": 873, "category": "Asian Restaurant"}, {"name": "Tony\u2019s Pizzeria & Restaurant", "location": [40.69911176135232, -73.91895403853648], "address": "443 Knickerbocker Ave Brooklyn NY 11237", "distance": 7488, "category": "Restaurant"}, {"name": "Peaches", "location": [40.68188262037345, -73.93482429562066], "address": "393 Lewis Ave Brooklyn NY 11233", "distance": 6911, "category": "American Restaurant"}, {"name": "THEP Thai Restaurant", "location": [40.770743347003574, -73.95705953980662], "address": "1439 2nd Ave New York NY 10021", "distance": 7644, "category": "Asian Restaurant"}, {"name": "Rolf\u2019s German Restaurant", "location": [40.73797399533674, -73.98351609706879], "address": "281 3rd Ave New York NY 10010", "distance": 3378, "category": "German Restaurant"}, {"name": "The Flame Diner", "location": [40.76843708559935, -73.98531817789257], "address": "893 9th Ave New York NY 10019", "distance": 6423, "category": "Coffee Shop"}, {"name": "The Triple Crown Ale House & Restaurant", "location": [40.74761202861952, -73.99315534344115], "address": "330 7th Ave New York NY 10001", "distance": 4016, "category": "Pub"}, {"name": "Vu Restaurant", "location": [40.71689621760403, -74.03152146093815], "address": "2 Exchange Pl Jersey City NJ 07302", "distance": 2197, "category": "American Restaurant"}, {"name": "Zack's Oak Bar & Restaurant", "location": [40.74064008523523, -74.03382573472544], "address": "232 Willow Ave Hoboken NJ 07030", "distance": 3881, "category": "Bar"}, {"name": "Arepera Guacuco", "location": [40.704774613162655, -73.92450042131118], "address": "44 Irving Ave Brooklyn NY 11237", "distance": 6922, "category": "Arepa Restaurant"}, {"name": "Connolly's Pub & Restaurant", "location": [40.7573681, -73.9835798], "address": "121 W 45th St New York NY 10036", "distance": 5300, "category": "Restaurant"}, {"name": "Connolly's Pub & Restaurant", "location": [40.7561728, -73.9778118], "address": "14 E 47th St New York NY 10017", "distance": 5372, "category": "Pub"}, {"name": "Westside Restaurant", "location": [40.77611010943836, -73.9821352576765], "address": "2020 Broadway New York NY 10023", "distance": 7316, "category": "Diner"}, {"name": "Galli Restaurant", "location": [40.72160721760932, -74.0012348067045], "address": "45 Mercer St New York NY 10013", "distance": 1057, "category": "Italian Restaurant"}, {"name": "Imposto Restaurant & Pizza", "location": [40.73755847339831, -74.03087205368169], "address": "102 Washington St Hoboken NJ 07030", "distance": 3457, "category": "Pizzeria"}, {"name": "Mudville9", "location": [40.71520852817451, -74.00892327116395], "address": "126 Chambers St New York NY 10007", "distance": 363, "category": "Bar"}, {"name": "Ise Restaurant", "location": [40.729124, -73.989979], "address": "63 Cooper Sq New York NY 10003", "distance": 2260, "category": "Soba Restaurant"}, {"name": "Court Street", "location": [40.74332213312085, -74.02861473442614], "address": "61 6th St Hoboken NJ 07030", "distance": 3889, "category": "Burger Joint"}, {"name": "Benno Restaurant", "location": [40.743825, -73.987094], "address": "7 E 27th St New York NY 10016", "distance": 3797, "category": "French Restaurant"}, {"name": "Smith's Bar & Restaurant", "location": [40.758741, -73.988936], "address": "701 8th Ave New York NY 10036", "distance": 5303, "category": "Dive Bar"}, {"name": "Ceja's Restaurant", "location": [40.75918323925446, -74.04446768075384], "address": "800 Kennedy Blvd Union City NJ 07087", "distance": 6087, "category": "Latin American Restaurant"}, {"name": "La Pola Restaurant", "location": [40.78429463980057, -74.01677817106247], "address": "5400 Palisade Ave West New York NJ 07093", "distance": 7996, "category": "Cuban Restaurant"}, {"name": "Nam Son Vietnamese Restaurant", "location": [40.718214526047454, -73.99434463491643], "address": "245 Grand St New York NY 10002", "distance": 1151, "category": "Vietnamese Restaurant"}, {"name": "VB3 Villa Borghese III Restaurant, Sports Bar & Lounge", "location": [40.72443478998581, -74.03649347287353], "address": "475 Washington Blvd Jersey City NJ 07310", "distance": 2875, "category": "Lounge"}, {"name": "Sevilla Restaurant", "location": [40.734866457830876, -74.00307252124185], "address": "62 Charles St New York NY 10014", "distance": 2464, "category": "Restaurant"}, {"name": "T.J. Byrnes Bar & Restaurant", "location": [40.70923312629616, -74.00374736164414], "address": "77 Fulton St New York NY 10038", "distance": 439, "category": "Bar"}, {"name": "O'Donoghues Pub & Restaurant", "location": [40.75701783963928, -73.98519861512638], "address": "156 W 44th St New York NY 10036", "distance": 5216, "category": "Bar"}, {"name": "Aladdin Sweets & Restaurant Astoria", "location": [40.75726191958214, -73.93115910851104], "address": "2906 36th Ave Astoria NY 11106", "distance": 8007, "category": "Deli"}, {"name": "Karina Restaurant", "location": [40.695200512733216, -74.09127715683994], "address": "201 Ocean Ave Jersey City NJ 07305", "distance": 7445, "category": "Spanish Restaurant"}, {"name": "Restaurant Associates", "location": [40.74742962725869, -73.98521536250983], "address": "330 5th Ave New York NY 10001", "distance": 4227, "category": "Restaurant"}, {"name": "Restaurant Patrick", "location": [40.756166050722356, -73.98147344600336], "address": "40 W 45th St New York NY 10036", "distance": 5242, "category": "American Restaurant"}, {"name": "Three Guys Restaurant", "location": [40.774085279197806, -73.96384386245269], "address": "960 Madison Ave New York NY 10021", "distance": 7679, "category": "Diner"}, {"name": "Casanova Restaurant", "location": [40.7340567527229, -73.95208213969691], "address": "338 McGuinness Blvd Brooklyn NY 11222", "distance": 5118, "category": "Pizzeria"}, {"name": "Restaurant On 58 St", "location": [40.63693930379453, -74.00871928011888], "address": "773 58th St Brooklyn NY 11220", "distance": 8433, "category": "Chinese Restaurant"}, {"name": "Molly Wee Pub", "location": [40.74966606908745, -73.99525562007274], "address": "402 8th Ave New York NY 10001", "distance": 4195, "category": "Pub"}, {"name": "SOUTHGATE Bar & Restaurant", "location": [40.766262471766034, -73.97853625529478], "address": "154 Central Park S New York NY 10019", "distance": 6375, "category": "American Restaurant"}, {"name": "Chatham Seafood Restaurant", "location": [40.71388466954485, -73.99826556444168], "address": "6 Chatham Sq New York NY 10038", "distance": 662, "category": "Cantonese Restaurant"}]