[{"name": "6th Avenue Shopping Court", "location": [40.75624, -73.982577], "address": "1157 Avenue of the Americas New York NY 10036", "distance": 5214}, {"name": "Westfield Garden State Plaza: Shopping Shuttle Bus", "location": [40.75687996739503, -73.98886442184448], "address": "W 42ND St New York NY 10013", "distance": 5106}, {"name": "International Council of Shopping Centers", "location": [40.759901299124174, -73.98251797604152], "address": "1221 Avenue of the Americas New York NY 10020", "distance": 5595}, {"name": "Shopping Box", "location": [40.720156, -73.995424], "address": "360 Broome St New York NY 10013", "distance": 1209}, {"name": "Shopping From USA", "location": [40.748963847316034, -73.98431539535522], "address": "350 5th Ave New York NY 10118", "distance": 4414}, {"name": "Shop Gotham NYC Shopping Tours", "location": [40.722373962402344, -73.99787139892578], "address": "72 Spring St New York NY 10012", "distance": 1265}, {"name": "The Shopping Center Group", "location": [40.76905883145535, -73.98245484526635], "address": "1841 Broadway New York NY 10023", "distance": 6558}, {"name": "Chic NYC Shopping Tour", "location": [40.725183, -74.002848], "address": "187 Spring St New York NY 10012", "distance": 1401}, {"name": "12 Days of Shopping Pop Up", "location": [40.72289276123047, -73.99520111083984], "address": "32 Prince St New York NY 10012", "distance": 1444}, {"name": "I Love New York Shopping Tours", "location": [40.72382736206055, -73.99574279785156], "address": "263 Mulberry St New York NY 10012", "distance": 1499}, {"name": "Theater District Shopping Court", "location": [40.75966285367496, -73.98783916207412], "address": "Midtown Manhattan New York NY 10036", "distance": 5427}, {"name": "Jen and Paul's One Stop Shopping Souvenir City and Chelsea Bus Tours", "location": [40.749533, -74.005884], "address": "555 W 24th St New York NY 10011", "distance": 4081}, {"name": "New Shopping World", "location": [40.74999237060547, -73.98324584960938], "address": "401 5th Ave New York NY 10016", "distance": 4555}, {"name": "Old Colony Shopping Center", "location": [40.718199459740504, -74.05266635020136], "address": " Jersey City NJ 07302", "distance": 3976}, {"name": "Elegant Tightwad Shopping Tours", "location": [40.7545051574707, -73.98773193359375], "address": "545 8th Ave New York NY 10018", "distance": 4883}, {"name": "IGT Jewelry Shopping Mall", "location": [40.75023057564109, -73.9814964027685], "address": "44 W 47th St New York NY 10036", "distance": 4643}, {"name": "Food Shopping - Food Bazaar", "location": [40.70428208680584, -73.9426324210411], "address": "Broadway Street Brooklyn NY 11206", "distance": 5421}, {"name": "Cross County Shopping", "location": [40.927327, -73.8557351], "address": "8000 Mall Walk Yonkers NY 10704", "distance": 26981}, {"name": "NYC Private Shopping Tour", "location": [40.752497, -73.965902], "address": "860 United Nations Plz New York NY 10017", "distance": 5555}, {"name": "Fulton Shopping Center", "location": [40.680084228515625, -73.94878387451172], "address": "1298 Fulton St Brooklyn NY 11216", "distance": 6037}, {"name": "Lex Avenue Shopping Court", "location": [40.760301, -73.969716], "address": "678 Lexington Ave New York NY 10022", "distance": 6098}, {"name": "Brooklyn Shopping Center", "location": [40.66220474243164, -73.96155548095703], "address": "495 Flatbush Ave Brooklyn NY 11225", "distance": 6755}, {"name": "Kingston Ave Shopping District", "location": [40.66779842253216, -73.94236836487822], "address": "288 Kingston Ave Brooklyn NY 11213", "distance": 7331}, {"name": "Tower Square Shopping Center", "location": [40.75255294041178, -73.90982356101124], "address": "5106 Northern Blvd Woodside NY 11377", "distance": 9225}, {"name": "New Forest Shopping Plaza", "location": [40.636295318603516, -74.00908660888672], "address": "5502 8th Ave Brooklyn NY 11220", "distance": 8505}, {"name": "Pelham Manor Shopping Plaza", "location": [40.8922573067517, -73.81776143990406], "address": "Pelham Pkwy Pelham NY 10803", "distance": 25463}, {"name": "Shopping Center", "location": [40.635332, -73.960913], "address": "1711 Foster Ave Brooklyn NY 11230", "distance": 9410}, {"name": "Bricktown Shopping Center", "location": [40.52884107699885, -74.23017279417951], "address": "Bricktown Way Staten Island NY 10309", "distance": 27846}, {"name": "Blue Star Shopping Center", "location": [40.64955025584002, -74.40907001495361], "address": "1701 US Highway 22 Watchung NJ 07069", "distance": 34686}, {"name": "Caesar's Shopping Center", "location": [40.59494639759227, -73.99970599194828], "address": "8949 Bay Pkwy Brooklyn NY 11214", "distance": 13107}, {"name": "Stylista Shopping Tours", "location": [40.782588958740234, -73.9497299194336], "address": "222 E 93rd St New York NY 10128", "distance": 9087}, {"name": "Hudson Mall", "location": [40.72125, -74.09526], "address": "701 State Rt 440 Jersey City NJ 07304", "distance": 7576}, {"name": "Baldwin Harbor Shopping Center", "location": [40.640144, -73.607956], "address": "935 Atlantic Ave Baldwin NY 11510", "distance": 34504}, {"name": "Turnstyle Underground Market", "location": [40.767081, -73.982569], "address": "1000 S 8TH Ave New York NY 10019", "distance": 6346}]